{"type":"FeatureCollection","features":[{"type":"Feature","properties":{"id":"pharm_01","name":"University Pharmacy","address":"4516 16th Ave NE, Seattle, WA","rating":4.6},"geometry":{"type":"Point","coordinates":[-122.3137,47.6561]}},{"type":"Feature","properties":{"id":"pharm_02","name":"U-District Pharmacy","address":"4545 University Way NE, Seattle, WA","rating":4.2},"geometry":{"type":"Point","coordinates":[-122.3134,47.661]}},{"type":"Feature","properties":{"id":"pharm_03","name":"Pharmacy at 15th","address":"1501 NE 45th St, Seattle, WA","rating":4},"geometry":{"type":"Point","coordinates":[-122.313,47.6615]}},{"type":"Feature","properties":{"id":"pharm_04","name":"Pharmacy on 15th","address":"1500 NE 45th St, Seattle, WA","rating":3.9},"geometry":{"type":"Point","coordinates":[-122.3131,47.6614]}},{"type":"Feature","properties":{"id":"pharm_05","name":"Ravenna Pharmacy","address":"4600 Ravenna Ave NE, Seattle, WA","rating":4.3},"geometry":{"type":"Point","coordinates":[-122.3018,47.6652]},"id":4},{"type":"Feature","properties":{"id":"pharm_06","name":"Pharmacy near UW Medical Center","address":"1959 NE Pacific St, Seattle, WA","rating":4.5},"geometry":{"type":"Point","coordinates":[-122.3076,47.6587]},"id":5},{"type":"Feature","properties":{"id":"pharm_07","name":"U District Drug","address":"4604 University Way NE, Seattle, WA","rating":4.1},"geometry":{"type":"Point","coordinates":[-122.3133,47.6612]}},{"type":"Feature","properties":{"id":"pharm_08","name":"Northgate Pharmacy","address":"401 NE Northgate Way, Seattle, WA","rating":3.8},"geometry":{"type":"Point","coordinates":[-122.328,47.7089]}},{"type":"Feature","properties":{"id":"pharm_09","name":"Pharmacy - Wallingford","address":"4511 Stone Way N, Seattle, WA","rating":4},"geometry":{"type":"Point","coordinates":[-122.3346,47.6619]},"id":8},{"type":"Feature","properties":{"id":"pharm_10","name":"Rite Aid - University District","address":"4540 University Way NE, Seattle, WA","rating":3.6},"geometry":{"type":"Point","coordinates":[-122.3139,47.6613]},"id":9},{"type":"Feature","properties":{"id":"pharm_11","name":"Madison Park Pharmacy","address":"812 34th Ave, Seattle, WA","rating":4.4},"geometry":{"type":"Point","coordinates":[-122.2853,47.6352]}},{"type":"Feature","properties":{"id":"pharm_12","name":"Capitol Hill Pharmacy","address":"1520 12th Ave, Seattle, WA","rating":4.1},"geometry":{"type":"Point","coordinates":[-122.3207,47.6132]}},{"type":"Feature","properties":{"id":"pharm_13","name":"Ballard Pharmacy","address":"5606 24th Ave NW, Seattle, WA","rating":4},"geometry":{"type":"Point","coordinates":[-122.3848,47.6688]},"id":12},{"type":"Feature","properties":{"id":"pharm_14","name":"Green Lake Pharmacy","address":"720 NE 71st St, Seattle, WA","rating":3.9},"geometry":{"type":"Point","coordinates":[-122.3232,47.6796]}},{"type":"Feature","properties":{"id":"pharm_15","name":"West Seattle Pharmacy","address":"4525 Fauntleroy Way SW, Seattle, WA","rating":3.7},"geometry":{"type":"Point","coordinates":[-122.3875,47.5738]}}]}